{"156.236.76.90": {"lat": 34.0544, "lon": -118.244, "city": "Los Angeles", "country": "United States"}, "198.105.127.124": {"lat": 51.5092, "lon": -0.1189, "city": "London", "country": "United Kingdom"}, "34.215.199.94": {"lat": 45.5235, "lon": -122.676, "city": "Portland", "country": "United States"}, "51.89.5.185": {"lat": 51.5081, "lon": -0.1278, "city": "London", "country": "United Kingdom"}, "109.237.98.226": {"lat": 52.3759, "lon": 4.8975, "city": "Amsterdam", "country": "The Netherlands"}, "170.64.161.65": {"lat": -33.8978, "lon": 151.1899, "city": "Sydney", "country": "Australia"}, "185.134.23.83": {"lat": 51.5164, "lon": -0.093, "city": "London", "country": "United Kingdom"}, "192.241.202.20": {"lat": 37.7308, "lon": -122.3838, "city": "San Francisco", "country": "United States"}}